"","stationPlotted","cityName","lon","lat","daysThreshold","nSmoky","smokeOzoneMeans","clearOzoneMeans","differenceOfMeans","signif","confInt_lower","confInt_upper","pValue","tValue"
"1","010730023-01","Birmingham",-86.815,33.553056,10,25,62.4708184241019,57.6708638470743,4.79995457702762,FALSE,-1.82324177186336,11.4231509259186,0.152139902481453,1.45179482071387
"2","010731005-01","Not in a city",-87.003611,33.331111,10,42,63.5309086283845,50.5657102957314,12.9651983326531,TRUE,7.29121467990292,18.6391819854032,1.87081434866072e-05,4.54571386991942
"3","010731009-01","Not in a city",-87.305556,33.459722,10,28,61.9551692808253,56.2775225271028,5.67764675372246,FALSE,-1.06006501717745,12.4153585246224,0.0971000657474685,1.68491040362302
"4","010731010-01","Leeds",-86.549167,33.545278,10,37,57.9789056663017,57.941701951215,0.0372037150867186,FALSE,-7.52726350731891,7.60167093749235,0.992091036458286,0.00998341234872291
"5","010732006-01","Hoover",-86.816667,33.386389,10,35,64.1288781814226,63.3240077183122,0.804870463110362,FALSE,-6.29393178449271,7.90367271071343,0.820949296564638,0.227459241872861
"6","010735002-01","Pinson",-86.669167,33.704722,10,27,58.9233210528003,57.4958514661505,1.42746958664974,FALSE,-4.49050836253687,7.34544753583635,0.630829807125816,0.483214829122778
"7","010735003-01","Not in a city",-86.9425,33.801667,10,33,61.6296661465759,55.1276139040909,6.502052242485,TRUE,1.17212065143841,11.8319838335316,0.0174823664725229,2.43019644804343
"8","020900034-01","Fairbanks",-147.727413,64.84569,10,11,32.4628836636634,34.2747537436468,-1.81187007998339,FALSE,-8.107035845048,4.48329568508121,0.552553986257746,-0.605483110578023
"9","051130003-01","Mena",-94.143316,34.454406,10,19,57.6983540325166,56.0572616967955,1.64109233572113,FALSE,-5.18988638281085,8.47207105425311,0.622885108083306,0.498957402861593
"10","051190007-01","North Little Rock",-92.281296,34.756189,10,40,58.874489573409,58.9964599343691,-0.12197036096012,FALSE,-4.94385376234308,4.69991304042284,0.960034898432352,-0.0502485644824261
"11","060010007-01","Livermore",-121.784217,37.687526,10,31,57.9623993328231,64.8090497669545,-6.84665043413143,FALSE,-14.0297300779612,0.336429209698379,0.0612061207455118,-1.92345288179272
"12","060012004-01","Berkeley",-122.30129,37.877794,10,20,26.0477191075272,27.2524363262443,-1.2047172187171,FALSE,-5.67014842728728,3.26071398985308,0.588792567595461,-0.544882371043856
"13","060070008-01","Chico",-121.84162,39.761538,10,20,56.2856598786176,56.2210598134337,0.0646000651839671,FALSE,-4.23032051843592,4.35952064880385,0.975799518823248,0.0305576251111127
"14","060111002-01","Colusa",-122.017728,39.202935,10,46,57.5391020302729,52.7354457543594,4.80365627591345,TRUE,1.43824151077995,8.16907104104694,0.00572988796024967,2.84208326612846
"15","060195001-01","Clovis",-119.717356,36.819111,10,17,94.2061483257282,85.5182299567465,8.68791836898163,FALSE,-0.00256435247262873,17.3784010904359,0.0500609575716077,2.09593862847029
"16","060210003-01","Not in a city",-122.191903,39.533761,10,43,55.3026830631845,51.7953901462952,3.50729291688927,FALSE,-0.0395125451212198,7.05409837889976,0.0525504091651644,1.96536083081705
"17","060290014-01","Bakersfield",-119.041209,35.356092,10,31,77.1081719576963,77.6783911778285,-0.570219220132202,FALSE,-7.47981353916218,6.33937509889777,0.868100176359058,-0.167233688020819
"18","060310004-01","Corcoran",-119.566954,36.10218,10,11,95.2366060350805,81.2753186528256,13.9612873822549,TRUE,5.75620121842111,22.1663735460887,0.00245048188770358,3.62112401591041
"19","060370016-01","Glendora",-117.85036,34.14435,10,19,70.8722126394039,80.9702593912083,-10.0980467518044,FALSE,-20.2856477218233,0.0895542182144499,0.0518693625268909,-2.06026873146274
"20","060376012-01","Santa Clarita",-118.5284,34.38344,10,15,76.9661862740907,80.2883580836617,-3.32217180957102,FALSE,-14.215568357101,7.57122473795895,0.529699607510947,-0.640889699158176
"21","060430003-01","Not in a city",-119.7062,37.71325,10,21,70.2386265958894,67.1465328799034,3.09209371598604,FALSE,-2.12559353349087,8.30978096546294,0.2335627751381,1.22100835089906
"22","060550003-01","Napa",-122.296189,38.310942,10,34,39.3012711508757,49.279254704588,-9.97798355371231,TRUE,-13.8272896622573,-6.12867744516729,1.63416876933468e-06,-5.15385015578758
"23","060590007-01","Anaheim",-117.93845,33.83062,10,13,52.0164664410256,54.2211601282708,-2.20469368724518,FALSE,-9.07882533529096,4.66943796080061,0.503745039745283,-0.685654486340306
"24","060610006-01","Roseville",-121.266312,38.745726,10,39,72.8366991642046,72.7753228870167,0.0613762771879607,FALSE,-6.69443690210919,6.81718945648511,0.985560550230103,0.0181740271102052
"25","060650012-01","Banning",-116.85841,33.92086,10,11,83.4681084552778,77.0782095562562,6.38989889902162,FALSE,-5.31490515022027,18.0947029482635,0.255659643692338,1.19719640900951
"26","060659001-01","Lake Elsinore",-117.33098,33.67649,10,15,73.2734901114343,72.9058933223989,0.367596789035389,FALSE,-6.67800994911081,7.41320352718159,0.913572227777987,0.110180485006628
"27","060670006-01","Arden-Arcade",-121.368014,38.613779,10,17,67.7332778843698,71.0869546154822,-3.35367673111234,FALSE,-11.1791784809296,4.47182501870493,0.386174032393848,-0.881672981130668
"28","060670010-01","Sacramento",-121.492981,38.558228,10,42,64.0788527625074,62.4781474993995,1.60070526310793,FALSE,-3.75729587181952,6.95870639803539,0.55361916784674,0.594977967162926
"29","060690003-01","Not in a city",-121.15688,36.48324,10,12,63.7158496906365,62.4071729028545,1.30867678778197,FALSE,-6.80050674760543,9.41786032316936,0.731859679515073,0.350511448129128
"30","060710005-01","Crestline",-117.27235,34.2431,10,10,91.6256463937199,94.0041658974721,-2.37851950375226,FALSE,-10.4266403709462,5.66960136344171,0.53435562975022,-0.63825173762543
"31","060719002-01","Not in a city",-116.38893,34.06957,10,10,77.8582690240544,76.7242385872168,1.13403043683762,FALSE,-7.06105818132283,9.32911905499807,0.765190498840762,0.306581156046966
"32","060750005-01","San Francisco",-122.399044,37.765946,10,24,30.5600279853292,27.6934086842142,2.86661930111497,FALSE,-1.15725617603225,6.89049477826219,0.157754068811672,1.43931932995599
"33","060773005-01","Tracy",-121.443324,37.682512,10,44,68.8067139926651,69.180427615139,-0.373713622473829,FALSE,-5.2985271624886,4.55109991754095,0.880039018065927,-0.151505298696695
"34","060811001-01","Redwood City",-122.20337,37.482934,10,26,34.0971408630874,37.2039524327519,-3.10681156966444,FALSE,-7.00515562944168,0.79153249011279,0.116438877226114,-1.58978677293402
"35","060850005-01","San Jose",-121.894898,37.348497,10,36,44.0299594486053,49.7504115797545,-5.72045213114923,TRUE,-10.1360776335188,-1.30482662877965,0.0117173925839195,-2.57508340722834
"36","060893003-01","Not in a city",-121.57646,40.53999,10,16,63.278013598404,54.8845951757643,8.39341842263971,FALSE,-0.468608241225217,17.2554450865046,0.061818576542106,2.01217423426601
"37","060950004-01","Vallejo",-122.237976,38.102507,10,26,38.366176521085,45.0373196636673,-6.6711431425823,TRUE,-12.3227671764568,-1.01951910870777,0.0217233863297025,-2.37613567873439
"38","060950006-01","Benicia",-122.1507,38.0656,10,16,50.5887721600035,55.4849454419107,-4.89617328190719,FALSE,-14.4363455870682,4.64399902325385,0.298218317146985,-1.06627416976336
"39","060990006-01","Not in a city",-120.837005,37.487981,10,16,92.6816284528176,79.173025297131,13.5086031556866,TRUE,2.32158186489784,24.6956244464754,0.0206457867693826,2.5361463831638
"40","061010003-01","Yuba City",-121.618549,39.138773,10,38,55.2873769956364,57.6031689425804,-2.31579194694394,FALSE,-7.63846457591235,3.00688068202448,0.388242146315702,-0.868481456108393
"41","061072002-01","Visalia",-119.291228,36.332179,10,43,80.868974177344,78.4805811354056,2.38839304193833,FALSE,-3.60431422169826,8.38110030557492,0.426988337310439,0.801068562653702
"42","061072010-01","Porterville",-119.055018,36.031831,10,10,65.0902278556232,76.626087407822,-11.5358595521988,TRUE,-16.5013758098975,-6.57034329450016,4.90681661975847e-05,-4.74763475454358
"43","061130004-01","Not in a city",-121.7734,38.53445,10,46,56.9236215316591,56.8637683063485,0.0598532253105759,FALSE,-6.00603510345788,6.12574155407903,0.984345216462014,0.0196950031247037
"44","080671004-01","Not in a city",-107.484167,37.30389,10,18,61.4605274671799,58.3969249441395,3.06360252304037,FALSE,-0.0659046329492188,6.19310967902996,0.0547704953686507,1.98257761550573
"45","080690007-01","Not in a city",-105.54564,40.27813,10,21,61.8106980622929,65.1853949111229,-3.37469684883006,FALSE,-8.05461223123282,1.3052185335727,0.151647037316354,-1.46876589858595
"46","080830101-01","Not in a city",-108.49046,37.1984,10,14,60.0723667583036,55.6158751884583,4.45649156984523,TRUE,0.237522320757516,8.67546081893295,0.0392632408130827,2.17655885194888
"47","090011123-01","Danbury",-73.443056,41.399167,10,24,66.2046790937399,64.3726262080851,1.83205288565482,FALSE,-5.88113658297437,9.545242354284,0.635242060023812,0.477347637567836
"48","090031003-01","East Hartford",-72.631667,41.784722,10,21,64.591821481953,62.3375847225067,2.25423675944634,FALSE,-5.51641691262584,10.0248904315185,0.563014059289463,0.582093728549343
"49","090050005-01","Cornwall",-73.297257,41.821342,10,13,65.840999499483,63.6143731658896,2.22662633359344,FALSE,-6.84530557173384,11.2985582389207,0.619098311255812,0.502694469030879
"50","090090027-01","New Haven",-72.902871,41.3014,10,22,66.9087335291647,61.3116171007331,5.59711642843163,FALSE,-2.5016524258438,13.6958852827071,0.170015100123082,1.39814008080254
"51","090110124-01","Groton",-72.07882,41.35362,10,12,74.3259829833016,68.1127484041583,6.21323457914326,FALSE,-5.44700815854655,17.8734773168331,0.278733645988309,1.1148767879581
"52","110010043-01","Washington",-77.013178,38.921847,10,30,70.0157553807033,69.5336497918078,0.482105588895521,FALSE,-4.20632656789676,5.1705377456878,0.837906141765577,0.205402358399573
"53","120013011-01","Micanopy",-82.296111,29.544722,10,43,50.379495412327,35.9513722150069,14.4281231973202,TRUE,10.2670792741282,18.5891671205121,4.66074951607071e-10,6.87573180073416
"54","120050006-01","Lower Grand Lagoon",-85.731517,30.130433,10,28,56.3752358493539,47.4808423015555,8.89439354779842,TRUE,3.39013138528451,14.3986557103123,0.00191978938504265,3.221643494881
"55","120090007-01","Melbourne",-80.628611,28.053611,10,16,51.5985227986715,36.1573857057353,15.4411370929362,TRUE,6.83455888624502,24.0477152996274,0.00137396048937724,3.76259495446917
"56","120210004-01","Naples",-81.711,26.27,10,27,50.0301040012828,32.0829852597206,17.9471187415622,TRUE,12.6678311269542,23.2264063561701,3.33163268579454e-08,6.87870651190244
"57","120230002-01","Lake City",-82.619167,30.178056,10,46,50.2816358825713,40.6805420924612,9.60109379011006,TRUE,5.94828020265351,13.2539073775666,8.33965051145934e-07,5.20522041646873
"58","120310077-01","Jacksonville",-81.587339,30.477725,10,24,56.4957391390126,42.26827232473,14.2274668142826,TRUE,7.75753670532612,20.6973969232391,5.11508021817039e-05,4.41148773014992
"59","120310100-01","Jacksonville",-81.454,30.261,10,35,56.7978202665897,46.9037320751661,9.8940881914236,TRUE,3.40875204491118,16.379424337936,0.00333198871468045,3.04602228026962
"60","120330004-01","Ferry Pass",-87.20355,30.525367,10,38,62.2802227265573,51.3987736433224,10.8814490832349,TRUE,5.61506359763663,16.1478345688332,9.95199623949715e-05,4.11794860731413
"61","120571065-01","Tampa",-82.538611,27.892222,10,18,61.2315516740787,43.045873362644,18.1856783114347,TRUE,10.4630378408446,25.9083187820248,9.76163573605494e-05,4.93644543109074
"62","120573002-01","Valrico",-82.2304,27.96565,10,18,54.2257728851023,43.5689551223438,10.6568177627585,TRUE,2.50861403632929,18.8050214891878,0.0132489680367508,2.74864338038651
"63","120590004-01","Not in a city",-85.603889,30.848611,10,39,53.9282287612321,44.7679176574374,9.16031110379478,TRUE,4.71063707641197,13.6099851311776,9.97308176735743e-05,4.09691749778032
"64","120730012-01","Tallahassee",-84.346389,30.439722,10,39,55.6383030529371,39.5063544439445,16.1319486089927,TRUE,12.4649165147882,19.7989807031971,1.05720203618799e-13,8.73752961530906
"65","120830003-01","Ocala",-82.100833,29.170278,10,30,52.3931577531869,40.5325868758236,11.8605708773633,TRUE,7.16860899259424,16.5525327621324,3.82959069745087e-06,5.04827051832829
"66","120850007-01","Stuart",-80.240689,27.172458,10,11,55.2464604157439,31.4527221410946,23.7937382746493,TRUE,16.2173208517863,31.3701556975123,3.93701538060578e-06,6.61549198481493
"67","120952002-01","Winter Park",-81.3625,28.596389,10,32,57.8338107404231,43.7271727944436,14.1066379459795,TRUE,8.56100682042822,19.6522690715308,3.90787371329709e-06,5.08973994019197
"68","120990009-01","Royal Palm Beach",-80.233889,26.730833,10,10,57.4907154070763,26.8213885058134,30.6693269012629,TRUE,24.2870344302683,37.0516193722574,9.54414207659612e-08,10.355517763637
"69","121030018-01","Saint Petersburg",-82.739875,27.785866,10,26,50.4748313863786,36.7010465276571,13.7737848587215,TRUE,8.43497975800997,19.112589959433,1.18111486096852e-05,5.27699893971586
"70","121035002-01","Tarpon Springs",-82.700833,28.09,10,27,50.6197708079049,36.7542259436393,13.8655448642656,TRUE,8.20020970045136,19.5308800280798,1.67382986474491e-05,4.96332980617936
"71","121056006-01","Lakeland",-81.972222,28.028889,10,23,54.0234348416144,42.8078431299504,11.215591711664,TRUE,2.20239262286256,20.2287908004654,0.015967381212519,2.5113000277812
"72","121111002-01","Fort Pierce",-80.40833,27.448889,10,19,49.7918088774494,31.8725745502454,17.919234327204,TRUE,10.1238198478373,25.7146488065707,4.37734867936246e-05,4.66669016234859
"73","121130015-01","Gulf Breeze",-87.008033,30.394133,10,37,57.7673894845437,54.0811070775898,3.68628240695382,FALSE,-6.20063405470776,13.5731988686154,0.448924725986021,0.769943413935765
"74","121152002-01","Venice",-82.362583,27.089194,10,16,50.2673285945771,35.049811631866,15.2175169627111,TRUE,6.80278439534187,23.6322495300803,0.00142224329252995,3.82419512262054
"75","121275002-01","Daytona Beach",-81.0525,29.206667,10,21,55.8263101171663,38.6686371567144,17.1576729604519,TRUE,12.6146208352249,21.7007250856788,4.28426255886904e-09,7.6565255691376
"76","121290001-01","Saint Marks",-84.161111,30.0925,10,13,49.7388323215787,41.9963129319441,7.74251938963456,FALSE,-1.48021077749315,16.9652495567623,0.0939550764367,1.7842536259277
"77","130590002-01","Athens-Clarke County (Remainder)",-83.344495,33.918067,10,41,62.7984036173816,60.3470317870826,2.45137183029904,FALSE,-3.84577932515348,8.74852298575155,0.436774366711684,0.784926109967735
"78","130770002-01","Not in a city",-84.745988,33.40404,10,27,60.8040671450176,57.3170356164052,3.48703152861246,FALSE,-5.0166426303421,11.990705687567,0.409490389388652,0.836003030390884
"79","130890002-01","Not in a city",-84.29048,33.68797,10,20,71.0802218184271,72.6063673109765,-1.5261454925494,FALSE,-11.3510479399295,8.29875695483073,0.755484371209256,-0.313452173913648
"80","131210055-01","Atlanta",-84.357056,33.720192,10,29,69.5492830274539,72.5662071965613,-3.0169241691074,FALSE,-12.0882620514274,6.05441371321258,0.506835529287742,-0.668825409372531
"81","131350002-01","Not in a city",-84.06901,33.96127,10,39,65.7140926823132,65.7821518147446,-0.0680591324314577,FALSE,-6.99595509865181,6.85983683378889,0.984259027902101,-0.0198530190632494
"82","131510002-01","McDonough",-84.161708,33.433575,10,37,66.5483621910216,80.1834173839817,-13.6350551929601,TRUE,-26.3859717021595,-0.884138683760765,0.0373462012929213,-2.23373648005355
"83","132130003-01","Chatsworth",-84.626422,34.785197,10,10,57.9140865818952,59.3325336186024,-1.4184470367072,FALSE,-7.02294400077317,4.18604992735877,0.602018681095345,-0.530547154254057
"84","132150008-01","Columbus (Remainder)",-84.944795,32.521302,10,37,60.4231887660753,51.4140149920351,9.00917377404021,TRUE,2.70893211780094,15.3094154302795,0.00620984843020647,2.89130167437856
"85","132230003-01","Not in a city",-85.04534,33.9285,10,50,63.6001293905241,54.7823083140234,8.81782107650069,TRUE,2.38426811686732,15.251374036134,0.00878873908897738,2.79326001388435
"86","132450091-01","Augusta-Richmond County (Remainder)",-82.022217,33.433349,10,44,64.278070901004,55.2533154778994,9.0247554231046,TRUE,2.81924930943624,15.230261536773,0.00520804902175505,2.91988458701653
"87","160010010-01","Not in a city",-116.347853,43.600699,10,18,53.5856601403228,59.2854356677015,-5.69977552737866,FALSE,-11.4057095645411,0.0061585097838073,0.0502249602057725,-2.08398569104757
"88","160230101-01","Not in a city",-113.562222,43.460556,10,19,57.5460119871315,54.9947149109216,2.55129707620991,FALSE,-0.493008363669873,5.5956025160897,0.0967941931557616,1.72346100905572
"89","170310001-01","Alsip",-87.732457,41.670992,10,63,60.1435738944427,61.0529584915931,-0.909384597150385,FALSE,-4.75425570888506,2.93548651458429,0.64010299152065,-0.468894800623799
"90","170310076-01","Chicago",-87.713488,41.7514,10,60,60.5169862083649,61.8094931895108,-1.29250698114588,FALSE,-6.30834396030584,3.72332999801408,0.606059158576054,-0.519473980710842
"91","170314201-01","Northbrook",-87.799227,42.139996,10,52,61.4493697443954,63.8219649093061,-2.37259516491068,FALSE,-8.64281809541418,3.89762776559281,0.444121431569619,-0.776756638595301
"92","170650002-01","Not in a city",-88.624943,38.082155,10,11,62.9159390622779,56.3239749392922,6.59196412298576,FALSE,-0.3509283654244,13.5348566113959,0.0607426558889128,2.07993489111751
"93","171110001-01","Cary",-88.242207,42.221442,10,63,57.2574683252937,55.7340019192507,1.52346640604305,FALSE,-3.64975517285076,6.69668798493686,0.548669048713818,0.608556133642364
"94","171150013-01","Decatur",-88.925594,39.866834,10,57,58.9682877894912,55.143952983953,3.82433480553818,FALSE,-0.211616442954487,7.86028605403085,0.0630399230318789,1.87870421185935
"95","171630010-02","East Saint Louis",-90.160477,38.612034,10,38,58.7900066403001,62.9104718643203,-4.12046522402018,FALSE,-9.19313202612903,0.952201578088669,0.11002551953691,-1.61472600674482
"96","171971011-01","Braidwood",-88.190967,41.221537,10,18,50.4141448953976,49.3251888933731,1.08895600202455,FALSE,-3.81244034841066,5.99035235245976,0.647728064873094,0.464043200577833
"97","180030004-01","Fort Wayne",-85.101816,41.094965,10,14,63.8412606907192,59.1035879906831,4.73767270003605,FALSE,-2.97655128391327,12.4518966839854,0.211273467664842,1.30253675939055
"98","180431004-01","New Albany",-85.834167,38.308056,10,10,67.0243843169229,66.8941512431729,0.130233073749991,FALSE,-10.5596392430104,10.8201053905103,0.979490143158238,0.0261810107077077
"99","180890022-01","Gary",-87.304729,41.60668,10,30,57.3333173408274,54.3057479758048,3.02756936502262,FALSE,-2.18722101758529,8.24235974763053,0.249689431837981,1.16331535422005
"100","181630012-01","Evansville",-87.569458,38.021727,10,24,68.8897348296664,62.6997505195385,6.18998431012795,FALSE,-0.288328042274307,12.6682966625302,0.0606977829850727,1.91714691923803
"101","181630021-01","Evansville",-87.577856,38.013248,10,11,56.2232019486912,57.6738245815263,-1.45062263283511,FALSE,-9.33381880475985,6.43257353908963,0.697532196779578,-0.397340225746396
"102","190450021-01","Clinton",-90.177574,41.874999,10,58,55.9840863510015,55.7134268103524,0.270659540649071,FALSE,-3.85138853670594,4.39270761800408,0.895680339715454,0.131763826204206
"103","191130040-01","Cedar Rapids",-91.68766,41.97677,10,73,53.5820689056424,53.1655243400404,0.416544565601981,FALSE,-2.51736847942801,3.35045761063198,0.778029215725251,0.282925717975457
"104","191370002-01","Not in a city",-95.044951,40.969112,10,70,48.5602289119879,51.3867255888078,-2.82649667681994,FALSE,-6.69455053249261,1.04155717885274,0.149155946435502,-1.46060390123811
"105","191471002-01","Emmetsburg",-94.693518,43.123704,10,55,50.9888134699302,52.0282577385869,-1.03944426865663,FALSE,-4.70553048356285,2.62664194624959,0.574508088224181,-0.563555616057674
"106","191530030-01","Des Moines",-93.643118,41.603159,10,78,48.1912618853083,51.0835678689855,-2.89230598367714,FALSE,-5.90330153864693,0.118689571292651,0.0594936216886679,-1.91318968395501
"107","191630015-01","Davenport",-90.587611,41.530011,10,53,54.8186202154323,52.3578040076033,2.46081620782903,FALSE,-1.14691408718532,6.06854650284338,0.177677353354278,1.36335051677994
"108","191770006-01","Not in a city",-92.006318,40.695078,10,48,50.4589312862452,56.1599256114182,-5.70099432517308,TRUE,-10.5179044209664,-0.884084229379801,0.0214185436786117,-2.38395023669416
"109","201950001-01","Not in a city",-99.763424,38.770081,10,25,58.2248851677963,63.2880456044237,-5.0631604366274,TRUE,-8.9417916785108,-1.184529194744,0.0118492104250194,-2.64056045166574
"110","202090021-01","Kansas City",-94.635605,39.117219,10,67,55.1174972099666,58.7315585916172,-3.6140613816506,FALSE,-7.98790470187113,0.759781938569926,0.104348424384268,-1.63813772220499
"111","210190017-01","Ashland",-82.64041,38.45934,10,44,54.2176237233449,54.8289041012367,-0.611280377891752,FALSE,-5.87717181487226,4.65461105908876,0.818193398893232,-0.230521688327609
"112","210290006-01","Shepherdsville",-85.71192,37.98629,10,11,63.0253445975292,57.8282248710058,5.19711972652338,FALSE,-1.14803986659411,11.5422793196409,0.104153983279292,1.68506572297811
"113","210373002-01","Highland Heights",-84.47445,39.021881,10,33,63.7384202715609,72.4496764847717,-8.71125621321077,TRUE,-15.671750363789,-1.75076206263253,0.0152603845952067,-2.51675203857393
"114","210590005-01","Not in a city",-87.075307,37.780776,10,44,62.9649009760009,64.0729016303007,-1.10800065429984,FALSE,-8.45971052749058,6.2437092188909,0.762006093041313,-0.305012419287438
"115","210610501-01","Not in a city",-86.142953,37.13179,10,17,62.2758495201722,60.5086227111501,1.76722680902215,FALSE,-3.36643271033942,6.90088632838372,0.488267858713915,0.701150375627925
"116","210670012-01","Lexington-Fayette (corporate name for Lexington)",-84.49761,38.06503,10,45,59.9057806273094,59.4617705109186,0.444010116390814,FALSE,-3.78765669370144,4.67567692648307,0.835495098905246,0.208210194989608
"117","210930006-01","Elizabethtown",-85.852629,37.705612,10,21,60.3216520807535,55.8725782844027,4.44907379635083,TRUE,0.614950309998812,8.28319728270285,0.0240123356263581,2.34187451264692
"118","211010014-01","Not in a city",-87.46375,37.8712,10,43,65.2125457466693,61.4424307276903,3.77011501897906,FALSE,-3.7390007444694,11.2792307824275,0.312357210728015,1.02912389295847
"119","211170007-01","Covington",-84.525,39.0725,10,24,69.7825323659556,61.6519869684568,8.1305453974988,TRUE,1.70482149887251,14.5562692961251,0.0143914972335543,2.55393802999257
"120","211451024-01","Paducah",-88.57251,37.05822,10,43,59.945128170081,62.3479572701732,-2.40282910009213,FALSE,-8.74282950951831,3.93717130933405,0.452715104102786,-0.754750834873002
"121","211930003-01","Hazard",-83.20932,37.28329,10,22,55.2061600335225,54.9634672232221,0.242692810300404,FALSE,-4.10863076142676,4.59401638202757,0.911570569767611,0.111517278931355
"122","211950002-01","Pikeville",-82.53532,37.4826,10,32,53.2630875660659,57.0630923463472,-3.80000478028128,FALSE,-10.405207308486,2.80519774792345,0.25406955639872,-1.15225524500341
"123","212218001-02","Not in a city",-87.851944,36.783889,10,10,62.5155879452274,56.5898419045399,5.92574604068742,TRUE,1.43848809109365,10.4130039902812,0.0121305575589746,2.7484647536915
"124","212270008-01","Oakland",-86.250628,37.035438,10,35,59.2650163726618,53.1329326319842,6.13208374067756,TRUE,1.83075005709808,10.433417424257,0.00572172701183302,2.83367969073095
"125","220150008-02","Shreveport",-93.74891,32.53626,10,43,59.7347618728836,55.9410048612523,3.79375701163134,FALSE,-1.09197110377844,8.67948512704113,0.126514031622331,1.54147991472955
"126","220190008-01","Westlake (RR name West Lake)",-93.284167,30.261667,10,43,49.7987453681455,48.0636522046385,1.73509316350701,FALSE,-4.32531683833646,7.79550316535048,0.570366145503432,0.569905845182134
"127","220330009-01","Baton Rouge",-91.17922,30.46198,10,15,49.0179059123189,48.1009057730655,0.917000139253418,FALSE,-13.0692765208584,14.9032767993652,0.891358323494034,0.138724745783783
"128","220330013-01","Not in a city",-91.056135,30.700921,10,19,51.10074650686,51.3653534521982,-0.264606945338173,FALSE,-8.93067647042778,8.40146257975143,0.950366223942602,-0.0628722012473657
"129","220511001-02","Kenner",-90.275091,30.043573,10,43,56.1066267088538,53.2049395211742,2.90168718767959,FALSE,-3.17321047450231,8.97658484986149,0.344791255028442,0.950236287299546
"130","220570004-01","Thibodaux",-90.765183,29.763889,10,31,57.6913621565208,50.1360272972871,7.55533485923371,FALSE,-2.00814028949689,17.1188100079643,0.119176796859013,1.58212312259625
"131","220630002-01","Not in a city",-90.8125,30.3125,10,29,59.2304468973379,48.0000302739086,11.2304166234293,TRUE,4.8832901611204,17.5775430857382,0.000808303430530725,3.54597271693838
"132","220710012-02","New Orleans",-90.102778,29.994444,10,26,52.6958795820285,49.2503302600169,3.44554932201162,FALSE,-3.95102258003579,10.842121224059,0.353642993910943,0.936622422255748
"133","221030002-01","Not in a city",-90.199683,30.429304,10,35,56.7753052103918,50.6498932657701,6.1254119446217,FALSE,-0.842325041017649,13.0931489302611,0.0836149126847497,1.76340516093799
"134","230031100-01","Presque Isle",-68.033006,46.696431,10,34,39.9946178690191,44.0103581532121,-4.01574028419305,FALSE,-9.44442382746512,1.41294325907902,0.142825792596091,-1.49424007743543
"135","230050029-01","Portland",-70.268965,43.660246,10,20,51.0398760560542,50.1529797336986,0.886896322355582,FALSE,-7.54027487750338,9.31406752221454,0.83010645816973,0.216840935433242
"136","230090103-01","Not in a city",-68.2609,44.37705,10,13,57.0449151968336,48.6267165856455,8.41819861118817,TRUE,1.18648859461072,15.6499086277656,0.0241441820928725,2.38637254096436
"137","240053001-01","Essex",-76.474444,39.310833,10,12,72.3271082841482,76.6850987536018,-4.35799046945361,FALSE,-16.3999932484242,7.68401230951699,0.452274516550815,-0.771856646246821
"138","240230002-01","Grantsville",-79.012,39.70595,10,11,65.0730692710979,64.7747392540167,0.298330017081156,FALSE,-8.97889952097886,9.57555955514117,0.946271920507501,0.0685225472244343
"139","250010002-01","Truro",-70.023598,41.975804,10,11,65.1685414332748,56.6109447057656,8.55759672750916,FALSE,-0.58792991950713,17.7031233745255,0.0643464658018763,2.01840957832811
"140","250070001-01","Aquinnah",-70.785225,41.330469,10,15,68.1979410227615,60.8797731520915,7.31816787066997,FALSE,-4.38894334938635,19.0252790907263,0.209788502270649,1.28711430802312
"141","250092006-01","Lynn",-70.970816,42.474642,10,41,65.3775448557911,67.2877116541242,-1.91016679833314,FALSE,-8.60538126359451,4.78504766692824,0.568609886175055,-0.574209233445279
"142","250095005-01","Haverhill",-71.10229,42.770837,10,29,65.63077039495,59.6063171949674,6.02445319998255,FALSE,-1.61195044072737,13.6608568406925,0.119471513185155,1.58304034707093
"143","250130008-01","Chicopee",-72.555112,42.19438,10,12,62.1089530502043,60.4575238237956,1.65142922640872,FALSE,-6.76666193217975,10.0695203849972,0.686174995917559,0.410212416339932
"144","250154002-01","Ware (census name for Ware Center)",-72.334079,42.298493,10,41,62.4180716882863,54.5526205820527,7.86545110623364,TRUE,1.88394263022149,13.8469595822458,0.0106519209576184,2.61960948033592
"145","250213003-01","Milton",-71.11397,42.211774,10,34,64.9822824601766,64.4664303365581,0.515852123618444,FALSE,-7.02351674087445,8.05522098811134,0.890481664592417,0.138649133887052
"146","250250042-01","Boston",-71.0826,42.3295,10,28,55.3752945431435,51.0938124708557,4.28148207228786,FALSE,-2.40520547179459,10.9681696163703,0.204165004881287,1.28716076442506
"147","260490021-01","Flint",-83.670159,43.047224,10,11,51.6215895040698,59.3607205966754,-7.73913109260554,TRUE,-14.5098832146074,-0.968378970603713,0.0285172661668656,-2.50007556697863
"148","260650012-02","Lansing",-84.534633,42.738618,10,13,52.3613052286453,58.3482208343746,-5.98691560572928,TRUE,-11.0751102348574,-0.898720976601207,0.0242722613980044,-2.51917279428545
"149","260770008-01","Kalamazoo",-85.54189,42.278067,10,14,55.7034193403728,59.5205058479723,-3.81708650759949,FALSE,-7.92294391622171,0.288770901022724,0.0663372522761113,-1.96781782259518
"150","260810020-01","Grand Rapids",-85.671339,42.984173,10,39,64.9156254108901,65.5775401476501,-0.661914736760025,FALSE,-9.22918057584304,7.90535110232299,0.87561845939361,-0.157888785385001
"151","260910007-01","Tecumseh",-83.946559,41.995568,10,10,59.5910391789886,64.2389621228613,-4.64792294387264,FALSE,-14.0058484755866,4.71000258784127,0.305708079207851,-1.06170960501999
"152","261130001-01","Not in a city",-84.891865,44.310555,10,11,61.3625274577707,61.853773746487,-0.491246288716312,FALSE,-8.51408125633051,7.53158867889789,0.898783064166643,-0.129095874637947
"153","261530001-01","Not in a city",-85.950227,46.288877,10,24,60.3796317411679,55.4270483375928,4.95258340357513,FALSE,-3.12757460777497,13.0327414149252,0.223740697092499,1.23275665463343
"154","261610008-01","Ypsilanti",-83.599602,42.240565,10,10,56.602429801723,56.296584791099,0.305845010624054,FALSE,-7.33469768620721,7.94638770745532,0.930606594575587,0.0893249670328311
"155","261630001-02","Allen Park",-83.2082,42.22862,10,44,58.9061190130998,53.7694007399167,5.13671827318305,FALSE,-0.915289658189882,11.188726204556,0.0949588098283055,1.69234207151766
"156","270031002-01","Blaine",-93.207615,45.13768,10,48,52.1714987422325,55.6460813206312,-3.47458257839867,TRUE,-6.53388777510293,-0.415277381694424,0.0264615685309237,-2.25574574092538
"157","270052013-01","Detroit Lakes",-95.846272,46.851811,10,54,46.9221341508771,52.3981124478954,-5.47597829701829,TRUE,-8.64712538632315,-2.30483120771342,0.000869908980142396,-3.42136854482634
"158","270177416-01","Cloquet",-92.52377,46.70527,10,14,44.6820301239836,43.1065001901372,1.57552993384641,FALSE,-4.81918126042631,7.97024112811914,0.617509688205999,0.505105774013115
"159","270353204-01","Brainerd",-94.1303,46.39674,10,75,45.8070658090575,51.1889899918801,-5.38192418282258,TRUE,-8.58897109984928,-2.17487726579588,0.00117386122600343,-3.32105492873387
"160","270750005-01","Not in a city",-91.495574,47.948622,10,45,43.9625233049387,48.2606668807452,-4.29814357580648,FALSE,-8.85275025641226,0.256463104799286,0.0639709583655648,-1.88248630086255
"161","270834210-01","Marshall",-95.81789,44.4438,10,41,49.8934380358536,51.2591535144441,-1.36571547859053,FALSE,-4.28351796016397,1.55208700298291,0.354178197727716,-0.93220461996205
"162","271095008-01","Rochester",-92.450366,43.996908,10,42,48.4379375828494,53.2127270405637,-4.77478945771426,TRUE,-7.68794775442008,-1.86163116100843,0.0016352780240382,-3.26284964856458
"163","271370034-01","Not in a city",-92.829225,48.41252,10,28,42.576067563228,47.7712897350298,-5.19522217180184,TRUE,-9.03985258361168,-1.35059175999201,0.00896882025125495,-2.70588166724917
"164","271453052-01","St. Cloud",-94.13345,45.549839,10,43,44.0354422619189,50.2395821304408,-6.20413986852195,TRUE,-10.0337588139624,-2.37452092308151,0.00184153326504193,-3.22551610267659
"165","271713201-01","St. Michael",-93.66921,45.20916,10,68,48.6669828145225,53.781940085855,-5.11495727133249,TRUE,-8.4878092863595,-1.74210525630548,0.00325785775946821,-3.00255207899873
"166","280110001-01","Cleveland",-90.723028,33.746056,10,37,60.6235063121444,55.1894256424045,5.43408066973988,TRUE,0.488344753450959,10.3798165860288,0.0316801444519632,2.18525232004681
"167","280330002-01","Hernando",-89.98783,34.82166,10,37,58.7677275394265,61.0907081625603,-2.32298062313374,FALSE,-8.16236843291283,3.51640718664535,0.430217450193071,-0.793416295323246
"168","280470008-01","Gulfport",-89.049778,30.390369,10,33,60.4608037227621,52.8433365324536,7.61746719030857,FALSE,-0.265179207343146,15.5001135879603,0.0578876773525306,1.94402783480523
"169","280490010-01","Jackson",-90.1412,32.385731,10,47,56.8535042007479,46.5676696818648,10.2858345188831,TRUE,5.03863418005414,15.5330348577122,0.000211267168063037,3.90962221581028
"170","280590006-01","Pascagoula",-88.53393,30.378287,10,11,59.7319598875932,54.5857047006466,5.14625518694656,FALSE,-5.10718930464802,15.3996996785411,0.302940761557073,1.06471107358472
"171","280750003-01","Meridian",-88.731491,32.364565,10,30,52.7835385438686,42.7224046178584,10.0611339260102,TRUE,4.55686677995902,15.5654010720614,0.000634821102704918,3.68666757471048
"172","280810005-01","Tupelo",-88.766222,34.264917,10,21,57.8179199262569,54.7340600161544,3.08385991010253,FALSE,-1.8743852224907,8.04210504269577,0.217742903101651,1.24724097205724
"173","290390001-01","Not in a city",-94.035,37.69,10,30,57.7635034169903,61.5883180775919,-3.82481466060166,FALSE,-8.02001164052324,0.370382319319919,0.07290639090108,-1.83733858376123
"174","290470005-01","Not in a city",-94.376623,39.30309,10,29,61.3562901427948,65.8366356935442,-4.48034555074938,FALSE,-9.94797671069357,0.987285609194814,0.105371645650203,-1.65898600296197
"175","290990012-01","Arnold",-90.361492,38.43783,10,17,69.9366581647047,57.421024443475,12.5156337212297,TRUE,3.1093364956056,21.9219309468538,0.0107187319859467,2.71049280818967
"176","290990019-01","Arnold",-90.39854,38.448633,10,22,60.3452888074766,62.3883672482685,-2.04307844079194,FALSE,-7.36203016612732,3.27587328454343,0.443554770362736,-0.772717714287143
"177","291860005-01","Not in a city",-90.42388,37.90084,10,25,64.530123384597,55.7900870008783,8.74003638371878,TRUE,2.5435853162594,14.9364874511782,0.00671363766672572,2.83927329754305
"178","295100085-01","St. Louis",-90.198646,38.656498,10,37,62.7101300240623,62.3463209684814,0.363809055580845,FALSE,-4.68881790207598,5.41643601323767,0.885996809653179,0.143970282992693
"179","300298001-01","Not in a city",-113.99681,48.5103,10,31,41.4682089760394,42.1243237110032,-0.656114734963822,FALSE,-4.14601872407911,2.83378925415147,0.708571541618145,-0.3754032755823
"180","300490004-01","Not in a city",-111.987164,46.8505,10,12,42.5077849782775,45.8160318274062,-3.30824684912873,TRUE,-6.3165296784476,-0.29996401980986,0.0327781464835431,-2.29618447419159
"181","320030020-01","North Las Vegas",-115.092222,36.245278,10,10,54.2473927747704,58.5919406719828,-4.34454789721247,FALSE,-18.39360910604,9.70451331161507,0.50450212535127,-0.693539456429925
"182","320030022-01","Not in a city",-114.907406,36.391007,10,12,64.0774399207694,60.8874010338947,3.19003888687466,FALSE,-2.35213616552613,8.73221393927545,0.235777991291822,1.24277531287374
"183","320031019-01","Not in a city",-115.357048,35.785671,10,16,61.7301699168139,59.0349746166433,2.69519530017057,FALSE,-2.18324611051363,7.57363671085478,0.260037530769813,1.16481511008766
"184","320032002-01","North Las Vegas",-115.12293,36.19126,10,14,59.8977837939729,61.2201473879995,-1.32236359402655,FALSE,-5.68570517215274,3.04097798409964,0.532712711466803,-0.635880210743447
"185","320310016-01","Reno",-119.807717,39.525083,10,22,60.779560472079,58.9351739869581,1.84438648512086,FALSE,-2.45900885117616,6.14778182141787,0.38596925707546,0.882232962563351
"186","320330101-01","Not in a city",-114.21593,39.00512,10,15,57.0966201339753,55.5991975092625,1.49742262471283,FALSE,-1.74403687785655,4.73888212728222,0.354288723509374,0.939318570785519
"187","330074002-01","Not in a city",-71.217694,44.308167,10,14,47.0455438319721,51.7557825339453,-4.7102387019732,FALSE,-11.9391257039943,2.51864830004788,0.191579200505905,-1.34258823935584
"188","330115001-01","Peterborough (Peterboro)",-71.878389,42.86175,10,12,60.3470686526311,57.0178067875577,3.32926186507348,FALSE,-6.06727822403904,12.725801954186,0.470309759848011,0.734594497057585
"189","340010006-01","Galloway (Township of)",-74.448736,39.464872,10,23,62.3030525732551,64.3943965110014,-2.09134393774633,FALSE,-8.5506251768363,4.36793730134364,0.51768839648867,-0.652018754025245
"190","340110007-01","Vineland",-75.025204,39.422273,10,29,61.0967038183627,67.5036074512038,-6.40690363284114,TRUE,-11.147559574517,-1.66624769116527,0.00892476356999032,-2.70393407819898
"191","340130003-01","Newark",-74.192892,40.720989,10,15,64.735176871208,62.6799280027667,2.0552488684413,FALSE,-8.73383684725556,12.8443345841382,0.695029313923936,0.39786089605518
"192","340190001-01","Raritan (Township of)",-74.806671,40.515262,10,37,70.2701397912,69.4642257007799,0.80591409042006,FALSE,-4.06522473881576,5.67705291965588,0.742716765881828,0.329439536544759
"193","340410007-01","Knowlton (Township of)",-75.067815,40.92458,10,13,58.0560089092618,56.9853770171298,1.07063189213196,FALSE,-8.13166576744431,10.2729295517082,0.813233825039891,0.238541797558208
"194","350010029-01","South Valley",-106.65739,35.01708,10,25,56.1262016065319,55.9192530315119,0.206948575020014,FALSE,-3.63299134636005,4.04688849640007,0.913556961533339,0.109322834789139
"195","350011013-01","North Valley",-106.613815,35.19324,10,26,55.977249817374,58.3589206756367,-2.38167085826272,FALSE,-5.83442925523402,1.07108753870858,0.171460530062585,-1.39023907776812
"196","350130021-01","Not in a city",-106.583889,31.796111,10,21,56.7877664365526,58.4566468325781,-1.66888039602556,FALSE,-6.28921171573358,2.95145092368247,0.469141314874193,-0.731193650272311
"197","350130022-01","Not in a city",-106.682778,31.787778,10,20,61.9046322570049,57.0918460223576,4.81278623464736,FALSE,-1.80261648950148,11.4281889587962,0.148319310579684,1.48016149177946
"198","350151005-01","Carlsbad",-104.262222,32.38,10,32,50.7963851898163,52.951090816445,-2.15470562662873,FALSE,-8.9669346214355,4.65752336817805,0.524720026307573,-0.642681965662919
"199","350250008-01","Hobbs",-103.122917,32.726656,10,47,52.9585214303467,47.6056589592192,5.35286247112749,FALSE,-2.07679866749081,12.7825236097458,0.144105356542186,1.55066204185848
"200","350450018-01","Not in a city",-107.65158,36.80973,10,34,63.3118576290507,61.2634455803609,2.04841204868977,FALSE,-0.94255943678915,5.03938353416869,0.176506433683856,1.36462588557243
"201","350490021-01","Not in a city",-106.07968,35.61975,10,40,52.4593668392445,51.7628881620806,0.696478677163867,FALSE,-2.65146412296941,4.04442147729714,0.679664636662579,0.414572569478145
"202","350610008-01","Not in a city",-106.7396,34.8147,10,25,55.4439246450114,53.6482520884151,1.79567255659627,FALSE,-1.42773094647678,5.01907605966933,0.266863372181999,1.12614930146758
"203","360050110-01","New York",-73.902,40.81618,10,17,63.1499479268071,60.2318654161321,2.91808251067503,FALSE,-5.15821133864183,10.9943763599919,0.467806836060479,0.73429299502333
"204","360310003-01","Not in a city",-73.8589,44.39308,10,24,60.3648972845458,60.2828402519781,0.0820570325677181,FALSE,-6.91559954950549,7.07971361464093,0.981279135108174,0.0235905098566504
"205","360551007-01","Rochester",-77.54817,43.14618,10,31,60.9930249525489,64.9222419044213,-3.92921695187246,FALSE,-10.1006497893259,2.24221588558102,0.204868978581445,-1.29112091852028
"206","360610135-01","New York",-73.94825,40.81976,10,24,64.337922445134,59.9123557265207,4.42556671861325,FALSE,-3.98418450077035,12.8353179379968,0.294066807103004,1.06292483286849
"207","360810124-01","New York",-73.82153,40.73614,10,14,63.2045116905855,65.500968215862,-2.29645652527648,FALSE,-11.0671402788954,6.47422722834242,0.592864667752443,-0.542451600558095
"208","360870005-01","Not in a city",-74.02819,41.18208,10,31,61.5896619146408,57.6921716255363,3.89749028910451,FALSE,-3.67547995185365,11.4704605300627,0.300844537561198,1.05402290797575
"209","361010003-01","Not in a city",-77.20978,42.09142,10,13,55.7188601235867,56.3906963148556,-0.671836191268952,FALSE,-7.42308698388787,6.07941460134996,0.837684233696404,-0.207533960892622
"210","361030009-01","Holtsville",-73.05754,40.82799,10,26,66.2139666443075,67.8927909764738,-1.6788243321663,FALSE,-9.54145745316637,6.18380878883377,0.670581752125276,-0.427559710398857
"211","361192004-01","White Plains",-73.76366,41.05192,10,41,67.3391240270712,65.3265227213523,2.01260130571893,FALSE,-4.16140731105122,8.18660992248908,0.517786502379459,0.650013481435377
"212","370110002-01","Not in a city",-81.933072,35.972347,10,13,50.4798830369601,49.1973792427707,1.28250379418941,FALSE,-5.6900788176097,8.25508640598852,0.704703129273137,0.384670074941483
"213","370330001-01","Not in a city",-79.467417,36.307033,10,30,61.4778756839943,64.1823006885728,-2.70442500457854,FALSE,-7.62149905510484,2.21264904594776,0.275495126783691,-1.1008234292821
"214","370630015-01","Durham",-78.905417,36.032944,10,29,61.66822347928,63.0222928167013,-1.35406933742131,FALSE,-6.10496427376298,3.39682559892036,0.569502467061583,-0.57260641805527
"215","370650099-01","Leggett",-77.582778,35.988333,10,31,65.9393966931022,63.8331570087953,2.10623968430689,FALSE,-2.27406953510906,6.48654890372285,0.340198854301973,0.961161648553932
"216","370670022-01","Winston-Salem",-80.226667,36.110556,10,33,65.3795690181288,63.4270684324678,1.95250058566099,FALSE,-4.23792475550559,8.14292592682757,0.529855507221921,0.632287159257486
"217","370670030-01","Winston-Salem",-80.342,36.026,10,34,62.4432258552983,63.112802654417,-0.669576799118737,FALSE,-7.42453521773924,6.08538161950176,0.840228315702149,-0.203598006245297
"218","370810013-01","Greensboro",-79.801111,36.109167,10,37,63.8248576504844,70.3392903725235,-6.51443272203908,FALSE,-13.1333655325848,0.104500088506647,0.0535472610322482,-1.99091746642795
"219","371170001-01","Jamesville",-76.906249,35.81066,10,42,59.4798344796613,62.264637306999,-2.78480282733771,FALSE,-8.0408403372731,2.47123468259768,0.286365923808374,-1.08804380990932
"220","371190041-01","Charlotte",-80.785683,35.2401,10,45,67.5387516185272,73.3519308404992,-5.81317922197195,FALSE,-11.8897285674071,0.263370123463209,0.0605453863855692,-1.90215155193846
"221","371290002-01","Castle Hayne",-77.838611,34.364167,10,35,55.0948053807881,52.9328359010758,2.16196947971223,FALSE,-3.68228300275145,8.00622196217592,0.457192114558603,0.752177909623606
"222","371590021-01","Rockwell",-80.395039,35.551868,10,37,69.7987427512493,72.0872015663422,-2.28845881509295,FALSE,-7.06850439014069,2.49158675995479,0.34222423421052,-0.957187668170261
"223","371730002-01","Bryson City (RR name Bryson)",-83.442133,35.434767,10,21,49.6026553933527,45.2782498654235,4.32440552792923,FALSE,-0.199978207241791,8.84878926310025,0.0603580796265118,1.94822713451233
"224","371830014-01","Raleigh",-78.574167,35.856111,10,15,63.2803065422295,66.1540127999462,-2.87370625771671,FALSE,-8.64910399152546,2.90169147609205,0.311888302681502,-1.03719606131406
"225","380070002-01","Not in a city",-103.37853,46.8943,10,32,51.2112910018314,55.5175433029685,-4.30625230113706,TRUE,-7.31498216581419,-1.29752243645992,0.00577341988433244,-2.86294226073646
"226","380130004-01","Not in a city",-102.4018,48.64193,10,38,44.9165440750396,50.7982189561131,-5.88167488107347,TRUE,-8.73944816163821,-3.02390160050872,0.00010515076054104,-4.10167429391638
"227","380171004-01","Not in a city",-96.85535,46.933754,10,44,42.8469747895122,47.2993755660699,-4.45240077655772,TRUE,-7.80096579029748,-1.10383576281796,0.00970406310415758,-2.63991494447215
"228","390030009-01","Lima",-84.0539,40.770944,10,33,64.7131359007233,64.9081316726111,-0.194995771887861,FALSE,-4.84222365291314,4.45223210913742,0.932446274113913,-0.0854290449877681
"229","390250022-01","Batavia",-84.1441,39.0828,10,36,66.8943907838684,71.7138593062162,-4.81946852234782,FALSE,-10.2056597266612,0.566722681965572,0.0787742902295171,-1.78020149234689
"230","390490081-01","Columbus",-82.959773,40.0877,10,11,59.4915525619546,59.6816131493824,-0.19006058742778,FALSE,-7.62426340867132,7.24414223381576,0.956688320365452,-0.0553981058910735
"231","390610006-01","Blue Ash",-84.36612,39.2787,10,41,72.9683393198682,70.7705697833522,2.19776953651591,FALSE,-2.85315397365069,7.2486930466825,0.389101648157983,0.86598182145306
"232","390850007-01","Painesville",-81.242156,41.726811,10,35,59.5853714359576,60.5632171804478,-0.977845744490253,FALSE,-8.39935387529092,6.44366238631041,0.790531197648303,-0.267709577353486
"233","390870012-01","Ironton",-82.659301,38.508114,10,23,49.9275918455359,59.7176950154366,-9.79010316990072,TRUE,-15.994937920543,-3.58526841925846,0.00262540735032117,-3.1711237179451
"234","390950024-01","Toledo",-83.54625,41.644067,10,38,59.4508934203426,53.6892260087718,5.7616674115708,TRUE,0.168282475454149,11.3550523476874,0.0436713144960497,2.05513588476162
"235","391650007-01","Lebanon",-84.20077,39.42689,10,46,67.5539312074254,68.4577332742201,-0.903802066794754,FALSE,-5.97866215900356,4.17105802541406,0.722716883606407,-0.356576499258204
"236","400019009-01","Cherry Tree",-94.669697,35.750735,10,51,58.3202001094791,59.848107993633,-1.52790788415383,FALSE,-6.19838967558178,3.14257390727413,0.517682734628596,-0.649297922488903
"237","400190297-01","Healdton",-97.474341,34.257125,10,32,60.7931427059824,61.3537081188991,-0.560565412916652,FALSE,-6.1166009169992,4.9954700911659,0.840604952540607,-0.202041160207596
"238","400270049-01","Moore",-97.484099,35.320105,10,39,57.1951988367337,57.8939478287932,-0.698748992059514,FALSE,-5.27767212552301,3.88017414140398,0.761731847427808,-0.304403867171752
"239","400310651-01","Lawton",-98.42879,34.63298,10,27,57.5829970997607,56.0447141481674,1.53828295159325,FALSE,-3.99166845514767,7.06823435833417,0.577023720429392,0.562384727157315
"240","400430860-01","Seiling",-98.931973,36.158414,10,51,55.7060036241854,56.6387744452751,-0.932770821089626,FALSE,-4.33547490491482,2.46993326273557,0.587009153923385,-0.545327439119663
"241","401091037-01","Oklahoma City",-97.475083,35.614131,10,25,60.51631301093,64.7128212775879,-4.1965082666579,FALSE,-9.68510862645638,1.29209209314058,0.129637247026416,-1.55187773727187
"242","401159004-01","Miami",-94.838889,36.922222,10,52,59.3833342438384,62.1230936067697,-2.73975936293137,FALSE,-7.26210006399673,1.78258133813398,0.232179893185811,-1.20217037522842
"243","401210415-01","McAlester",-95.784375,34.90227,10,20,58.2055430190265,58.5259104250698,-0.320367406043324,FALSE,-5.01790744198662,4.37717262989997,0.89011407262798,-0.139352838649229
"244","401430174-01","Glenpool",-96.004975,35.953708,10,48,55.2821229039043,60.687848579777,-5.40572567587278,TRUE,-9.74920666109526,-1.0622446906503,0.0152500955019791,-2.46991501328071
"245","401431127-01","Tulsa",-95.976537,36.204902,10,40,55.1718675236288,65.388303480505,-10.2164359568762,TRUE,-15.941466392446,-4.49140552130631,0.00066684345271234,-3.55727625544267
"246","410050004-01","Not in a city",-122.588151,45.25928,10,51,51.628528434253,61.098966780029,-9.47043834577594,TRUE,-15.6126465899353,-3.32823010161659,0.00290039003192677,-3.06443650280148
"247","410090004-01","Not in a city",-122.7721,45.768531,10,72,39.747097956688,51.4760846669335,-11.7289867102455,TRUE,-16.6957555344205,-6.7622178860704,1.64466700190609e-05,-4.73540122819461
"248","410390060-01","Eugene",-123.083737,44.026312,10,77,48.8165788782659,60.7725294087628,-11.9559505304969,TRUE,-17.145622313325,-6.76627874766884,2.93810149358099e-05,-4.63737880876965
"249","410510080-01","Portland",-122.602877,45.496641,10,64,43.2930054678686,53.1533086600491,-9.86030319218053,TRUE,-14.8185306001917,-4.90207578416938,0.000154793263921393,-3.95102252040662
"250","420030008-01","Pittsburgh",-79.960757,40.46542,10,31,64.0189667473677,64.4525394770816,-0.433572729713902,FALSE,-7.35755469817315,6.49040923874535,0.900803992810548,-0.125153030306289
"251","421010004-01","Philadelphia",-75.09778,40.008889,10,18,52.3282210731446,53.7874390696855,-1.45921799654093,FALSE,-6.26939235868151,3.35095636559966,0.546538414095355,-0.606238507174522
"252","421010024-01","Philadelphia",-75.011549,40.0764,10,14,73.2901126278056,72.2638139695485,1.02629865825713,FALSE,-8.11133267847631,10.1639299949906,0.816842553018375,0.234782686721061
"253","440071010-01","East Providence",-71.36077,41.841573,10,10,70.874971003575,67.3661675460429,3.50880345753212,FALSE,-7.26849787724916,14.2861047923134,0.505244725347108,0.678214755638956
"254","450190046-01","Not in a city",-79.657187,32.941023,10,28,54.6094366262136,44.3143223773663,10.2951142488472,TRUE,5.70625187715737,14.8839766205371,3.85473665747814e-05,4.50265916400193
"255","450290002-02","Not in a city",-80.965038,33.007866,10,20,48.436035807324,46.1303085085039,2.30572729882014,FALSE,-3.23016918070613,7.84162377834642,0.402236959418897,0.849181704551002
"256","450370001-01","Not in a city",-81.853635,33.739963,10,21,55.3067750508731,48.3039503484315,7.00282470244165,TRUE,0.394450155908208,13.6111992489751,0.0384823695715741,2.15702570380288
"257","460330132-03","Not in a city",-103.48386,43.55764,10,36,56.7900609990326,61.5167884101636,-4.72672741113102,TRUE,-7.9243423174361,-1.52911250482595,0.00444537027044579,-2.95739433294424
"258","460710001-03","Not in a city",-101.941218,43.74561,10,22,48.1062525669994,58.1428205305102,-10.0365679635107,TRUE,-15.1603976095672,-4.91273831745425,0.000355158605559807,-3.98738172540002
"259","460990008-03","Sioux Falls",-96.700769,43.54792,10,24,53.6031326370048,58.6712904641429,-5.06815782713812,TRUE,-9.69997056695387,-0.436345087322356,0.0326939389007284,-2.203874445202
"260","471570075-01","Memphis",-89.850249,35.151699,10,34,59.6994193981518,67.8899994729492,-8.19058007479747,FALSE,-20.9223335988473,4.54117344925239,0.188998288040554,-1.3819347303329
"261","480290032-02","Leon Valley",-98.620166,29.51509,10,46,54.007971409623,46.1191792793321,7.88879213029092,TRUE,2.88801421587256,12.8895700447093,0.00253729830691159,3.15937451450046
"262","480290055-01","San Antonio",-98.431111,29.407222,10,10,37.0295369340156,37.0365927818732,-0.00705584785760038,FALSE,-6.59466815089663,6.58055645518143,0.998169907552603,-0.00234380939664999
"263","480290059-01","Not in a city",-98.311692,29.275381,10,45,47.1536027612991,37.6582010587752,9.49540170252386,TRUE,5.07182557309983,13.9189778319479,6.75662362551291e-05,4.29774383504604
"264","480430101-01","Not in a city",-103.17781,29.30265,10,31,56.6799027388783,53.7848731597437,2.89502957913459,FALSE,-1.24332039763415,7.03337955590334,0.164813784076288,1.41663423579867
"265","480610006-01","Brownsville",-97.493836,25.892503,10,60,38.154480923996,23.914705101948,14.239775822048,TRUE,11.4506311629987,17.0289204810973,1.56198613804594e-15,10.1793584932684
"266","481130069-03","Dallas",-96.860082,32.819952,10,52,58.4200220298742,52.3334719517377,6.08655007813645,TRUE,0.267334370604395,11.9057657856685,0.0405771486974825,2.0800274921223
"267","481210034-01","Denton",-97.196287,33.219056,10,49,65.6984667510915,62.802004056365,2.89646269472655,FALSE,-2.84682493133218,8.63975032078528,0.318229880616694,1.00487626494475
"268","481390016-01","Midlothian",-97.026922,32.482082,10,33,52.3605222024501,47.0558589496736,5.30466325277649,TRUE,0.207625083682533,10.4017014218704,0.0417356143047817,2.0981459695746
"269","481391044-01","Not in a city",-96.87018,32.175428,10,41,51.5847178022007,46.1597044850333,5.4250133171674,TRUE,0.178033202689169,10.6719934316456,0.0429563656630339,2.07076303133313
"270","481410037-02","El Paso",-106.50126,31.768291,10,26,53.7535339150744,54.7466979968425,-0.993164081768107,FALSE,-6.10819209858416,4.12186393504795,0.69693610813875,-0.392232561694117
"271","481410055-01","El Paso",-106.402784,31.746743,10,23,45.4534851873197,49.6308966642328,-4.1774114769131,FALSE,-9.76019448827669,1.40537153445049,0.13406340516002,-1.56308517024076
"272","481671034-01","Galveston",-94.861289,29.254474,10,38,53.04718101073,34.6207450349689,18.4264359757611,TRUE,8.54625530272021,28.306616648802,0.000386718484836932,3.71453700717955
"273","482010024-02","Not in a city",-95.326125,29.901037,10,39,57.3971780255949,53.1573834364477,4.23979458914714,FALSE,-3.08879972259868,11.568388900893,0.25235868092424,1.15445552584751
"274","482010026-03","Channelview",-95.125495,29.802707,10,36,52.6968590091893,46.7723738936299,5.92448511555943,FALSE,-1.51529679038188,13.3642670215007,0.116228818280607,1.59617222047594
"275","482010416-01","Houston",-95.294722,29.686389,10,38,57.4860087469927,42.3377647385063,15.1482440084864,TRUE,6.32122532316185,23.975262693811,0.00111315563830064,3.43781678422492
"276","482011034-02","Houston",-95.220587,29.767971,10,41,53.5741165815619,46.705455083598,6.86866149796393,FALSE,-0.326277957003993,14.0636009529318,0.0609815146715999,1.90840900055442
"277","482011035-03","Houston",-95.257593,29.733726,10,36,48.8854517890935,41.6122553322998,7.27319645679376,FALSE,-1.18802052212743,15.7344134357149,0.0905006237727608,1.72449415765762
"278","482011039-01","Deer Park",-95.128508,29.670025,10,37,54.5941777288304,43.8038720570429,10.7903056717875,TRUE,3.00091742973099,18.5796939138441,0.00760428823242689,2.78315335890849
"279","482011050-01","Seabrook",-95.015544,29.583047,10,33,53.1799198262826,42.9816846090624,10.1982352172203,TRUE,1.26468066815224,19.1317897662883,0.0262197443839838,2.30146984935383
"280","482030002-01","Not in a city",-94.167457,32.668987,10,43,58.0252207930253,57.0654875744351,0.959733218590216,FALSE,-3.65251713947176,5.57198357665219,0.679536552550745,0.414771066222131
"281","482150043-01","Mission",-98.29107,26.226226,10,53,38.7415950192672,25.7134971639078,13.0280978553594,TRUE,10.0979278903571,15.9582678203617,3.6431504889191e-13,8.86271289249149
"282","482450022-01","Not in a city",-94.3178,29.863953,10,50,51.3459579839301,42.4338538973684,8.91210408656174,TRUE,1.87422820777413,15.9499799653493,0.0137186104722886,2.51968493487813
"283","482570005-01","Kaufman",-96.317677,32.564952,10,49,56.8194934930792,51.5191469134278,5.30034657965133,TRUE,1.19074485910663,9.40994830019602,0.0121064069852345,2.56512209313611
"284","483091037-01","Waco",-97.070684,31.653068,10,32,51.0594338137572,47.1530428068968,3.90639100686043,FALSE,-0.984183930815945,8.79696594453681,0.114320963852766,1.61422513572293
"285","483390078-01","Conroe",-95.425128,30.350302,10,28,53.8003832213454,49.1826471188427,4.61773610250273,FALSE,-1.27570963638687,10.5111818413923,0.120804377227673,1.58881316050393
"286","483491051-01","Corsicana",-96.399138,32.03194,10,45,54.8083165705434,49.7892616481216,5.01905492242179,FALSE,-0.169702528272375,10.2078123731159,0.0578057254891072,1.92201585904568
"287","483550025-02","Corpus Christi",-97.434247,27.765335,10,49,40.0199067658959,28.3102299503002,11.7096768155957,TRUE,7.22584802154419,16.1935056096473,2.11818647512081e-06,5.21794886731538
"288","483611100-01","West Orange",-93.866944,30.194167,10,46,52.6667159468987,46.3010685222639,6.36564742463485,TRUE,0.438288767466961,12.2930060818027,0.0356144015597318,2.13520786013741
"289","484393011-01","Arlington",-97.088583,32.656372,10,53,58.1304919385234,49.5340507784253,8.59644116009802,TRUE,3.05205764372635,14.1408246764697,0.00285769784468603,3.09303127209638
"290","484530014-02","Austin",-97.760254,30.354419,10,32,54.2244888524046,46.121353320729,8.10313553167557,TRUE,1.5935424108137,14.6127286525374,0.0161469536373122,2.52541588892547
"291","484530020-01","Not in a city",-97.872301,30.483168,10,39,51.7066286731237,45.3535301297463,6.35309854337746,TRUE,1.44889892275452,11.2572981640004,0.0122688778364869,2.60854577883848
"292","490030003-01","Brigham City",-112.018863,41.492707,10,30,63.234692890033,63.7602016037277,-0.525508713694684,FALSE,-4.56740776399751,3.51639033660814,0.795536748599969,-0.260341833695774
"293","490050004-01","Logan",-111.8375,41.731111,10,60,60.4391044585882,60.8665953111328,-0.427490852544615,FALSE,-3.17043102705748,2.31544932196825,0.757828628109979,-0.30917163446175
"294","490130002-01","Roosevelt",-110.009732,40.294178,10,11,56.4628552349664,56.3136273596384,0.149227875328023,FALSE,-2.99218485403068,3.29064060468673,0.923682203844796,0.0965027454308884
"295","490353006-01","Salt Lake City",-111.872222,40.736389,10,54,61.6429228153495,67.0433829102967,-5.40046009494726,TRUE,-9.79119036234914,-1.00972982754538,0.016429035539055,-2.43971054803138
"296","490370101-01","Not in a city",-109.82126,38.45832,10,12,63.5156519550458,56.8558492655262,6.65980268951955,TRUE,2.96173486781016,10.3578705112289,0.00164064158602228,3.84476353243245
"297","490450003-01","Tooele",-112.299618,40.543309,10,41,60.6687382750049,61.5073173670004,-0.838579091995484,FALSE,-4.3429363555014,2.66577817151043,0.633735363114685,-0.479006996679314
"298","490472002-01","Not in a city",-109.353932,40.206291,10,13,55.2762264273997,56.0384099402319,-0.762183512832131,FALSE,-4.68554468102181,3.16117765535754,0.686051158511136,-0.411609551415899
"299","490472003-01","Not in a city",-109.688108,40.05671,10,24,60.0210240894921,54.2913381930328,5.72968589645926,TRUE,2.07778081407307,9.38159097884544,0.00280565042991978,3.1584194446472
"300","490490002-02","Provo",-111.663056,40.253611,10,27,64.0677961734008,64.3988348267866,-0.331038653385832,FALSE,-5.13260765659442,4.47053034982275,0.890605404703172,-0.138179366134777
"301","490530130-01","Virgin",-113.1506,37.1983,10,11,60.0637287750422,57.9911054077896,2.07262336725259,FALSE,-2.12409861534936,6.26934534985454,0.319931006285976,1.01321056585903
"302","490570002-01","Ogden",-111.975524,41.206321,10,29,59.521174116185,63.1832316502995,-3.66205753411447,FALSE,-8.49566117847537,1.17154611024644,0.135055018097739,-1.51368527811109
"303","500030004-01","Bennington",-73.24984,42.88759,10,33,53.1078089971141,49.8123922581127,3.29541673900137,FALSE,-2.09744074740192,8.68827422540466,0.227028010927436,1.21877142649524
"304","500070007-01","Underhill (Town of)",-72.86884,44.52839,10,14,46.5571334771281,49.4242076508497,-2.86707417372161,FALSE,-8.83642094617546,3.10227259873223,0.334805372008367,-0.979822942966857
"305","510030001-01","Not in a city",-78.50397,38.07657,10,22,59.2313935816406,58.8312114335068,0.40018214813383,FALSE,-4.08631115594331,4.88667545221097,0.858023161068527,0.179990206480679
"306","510590030-01","Groveton",-77.10468,38.77335,10,26,75.6299494295787,70.1782739304132,5.45167549916542,FALSE,-2.35289246256724,13.2562434608981,0.166490383346006,1.4055233061087
"307","510690010-01","Not in a city",-78.08157,39.28102,10,18,62.5418584569425,58.4971413850578,4.04471707188473,FALSE,-1.30851239605837,9.39794653982782,0.133562722483457,1.53981444683465
"308","510870014-01","East Highland Park",-77.40027,37.55652,10,20,68.5145246421346,66.315004267017,2.19952037511767,FALSE,-4.88841723198186,9.2874579822172,0.532021419873152,0.631650356616786
"309","511130003-01","Not in a city",-78.43471,38.5231,10,12,67.2363187414553,60.144726686574,7.09159205488135,TRUE,0.458026691334809,13.7251574184279,0.0372262287947234,2.21295291536454
"310","511630003-01","Not in a city",-79.51257,37.62668,10,12,56.504868290553,53.1654089892755,3.33945930127749,FALSE,-3.33925343618209,10.0181720387371,0.309350600029038,1.04314627474307
"311","516500008-01","Hampton",-76.387017,37.103733,10,27,61.3525715458847,56.8080554131526,4.54451613273206,FALSE,-1.0973043967404,10.1863366622045,0.111952626165507,1.61828276942902
"312","530330017-01","North Bend (Northbend)",-121.77278,47.49022,10,68,43.9662012578645,54.0782758958349,-10.1120746379705,TRUE,-14.8910650678951,-5.3330842080458,5.72594114164812e-05,-4.19584923990826
"313","530330023-01","Enumclaw",-121.9379,47.1411,10,40,48.1099964271608,70.2697707113552,-22.1597742841944,TRUE,-30.1478353128593,-14.1717132555294,4.44079924653393e-07,-5.52529470410662
"314","530531010-01","Not in a city",-122.12429,46.75838,10,19,41.0469843866544,51.121414041673,-10.0744296550187,TRUE,-18.4991574896907,-1.64970182034656,0.0203436444460839,-2.41899752325821
"315","530630021-01","Spokane",-117.364852,47.672482,10,44,48.4289457568413,50.6522079373751,-2.2232621805338,FALSE,-5.52658941146464,1.08006505039704,0.184405518674892,-1.33818992062412
"316","550250041-01","Madison",-89.357298,43.100838,10,41,57.1830435229719,57.502878792917,-0.319835269945067,FALSE,-4.56766755908236,3.92799701919223,0.880686903420877,-0.150773269426885
"317","550270001-02","Horicon",-88.621111,43.466111,10,45,55.5070884658981,58.6950397600039,-3.18795129410579,FALSE,-8.67315563403984,2.29725304582826,0.247929583087485,-1.17058075242389
"318","550350014-01","Not in a city",-91.143,44.761,10,41,53.6013028024139,53.1191258484216,0.482176953992258,FALSE,-5.69566992408664,6.66002383207115,0.87143535310089,0.164204351220117
"319","550410007-01","Not in a city",-88.8088,45.563,10,28,49.3054741358836,51.9939908914262,-2.68851675554257,FALSE,-7.6780007471273,2.30096723604217,0.284450458770268,-1.08174931942234
"320","550590019-01","Pleasant Prairie",-87.8093,42.504722,10,26,63.4530648733138,61.4510437559215,2.00202111739231,FALSE,-2.91087421306311,6.91491644784773,0.414989134990199,0.82376763340209
"321","550630012-01","La Crosse",-91.2269,43.7775,10,47,51.6623816362775,52.0556600659819,-0.393278429704459,FALSE,-5.68759185184972,4.90103499244081,0.879994274765802,-0.152412411926898
"322","550790010-01","Milwaukee",-87.933333,43.016667,10,25,47.7100980371534,51.2566706524734,-3.54657261532005,FALSE,-8.07044210079646,0.977296870156354,0.120066331787335,-1.59768055804911
"323","550790026-01","Milwaukee",-87.913504,43.060975,10,31,56.7482009099955,56.1435480222009,0.604652887794614,FALSE,-4.79931376314144,6.00861953873067,0.823315810659754,0.224382238763456
"324","550870009-01","Appleton",-88.395134,44.30738,10,28,52.8352305889268,56.7449971002962,-3.9097665113694,FALSE,-8.75318087814859,0.933647855409792,0.110534482088575,-1.63328892478113
"325","550890009-01","Not in a city",-87.81,43.49806,10,35,58.0880411707186,56.7475693285667,1.34047184215194,FALSE,-3.86221803472085,6.54316171902473,0.609342729388691,0.513133420307627
"326","551110007-01","Not in a city",-89.6797,43.4351,10,42,54.3872498251663,55.7762027334067,-1.38895290824043,FALSE,-5.79517824091594,3.01727242443509,0.5291267858649,-0.634000233892423
"327","560050123-01","Not in a city",-105.2903,44.6522,10,31,58.3123853067571,63.2590986819013,-4.94671337514418,TRUE,-8.65486380303185,-1.23856294725652,0.00977849862085133,-2.66790431797811
"328","560210100-01","Not in a city",-104.778334,41.182227,10,11,55.3254919319688,60.861048000997,-5.53555606902815,FALSE,-12.7832001793304,1.71208804127405,0.126376369216259,-1.59903465251582
